stop_id,stop_code,stop_name,stop_lat,stop_lon,location_type,parent_station,wheelchair_boarding,level_id,platform_code,state
200060,,Central Station,-33.88402424,151.20620308,1,,0,,,NSW
201510,,Redfern Station,-33.89204769,151.19841906,1,,0,,,NSW
204210,,Newtown Station,-33.89791301,151.17937737,1,,0,,,NSW
204810,,Stanmore Station,-33.89447424,151.16414803,1,,0,,,NSW
204910,,Petersham Station,-33.89386331,151.15557204,1,,0,,,NSW
204920,,Lewisham Station,-33.89341703,151.14770641,1,,0,,,NSW
207720,,Hornsby Station,-33.70347479,151.09835973,1,,0,,,NSW
213010,,Summer Hill Station,-33.89044065,151.13870280,1,,0,,,NSW
213110,,Ashfield Station,-33.88763777,151.12585123,1,,0,,,NSW
213210,,Croydon Station,-33.88307479,151.11520613,1,,0,,,NSW
213410,,Burwood Station,-33.87710168,151.10385716,1,,0,,,NSW
213510,,Strathfield Station,-33.87167201,151.09428565,1,,0,,,NSW
216710,,Glenfield Station,-33.97220759,150.89306653,1,,0,,,NSW
221320,,East Hills Station,-33.96181740,150.98472867,1,,0,,,NSW
222010,,Hurstville Station,-33.96744133,151.10269428,1,,0,,,NSW
223210,,Sutherland Station,-34.03175379,151.05722202,1,,0,,,NSW
223220,,Loftus Station,-34.04522117,151.05131573,1,,0,,,NSW
223310,,Engadine Station,-34.06770196,151.01486023,1,,0,,,NSW
223320,,Heathcote Station,-34.08791879,151.00833242,1,,0,,,NSW
223330,,Waterfall Station,-34.13490804,150.99454839,1,,0,,,NSW
250020,,Wollongong Station,-34.42701768,150.88819093,1,,0,,,NSW
250530,,Port Kembla North Station,-34.47297413,150.88813754,1,,0,,,NSW
250540,,Port Kembla Station,-34.47717840,150.90236909,1,,0,,,NSW
250810,,Helensburgh Station,-34.17705075,150.99425973,1,,0,,,NSW
250830,,Otford Station,-34.21078659,151.00583131,1,,0,,,NSW
250850,,Coalcliff Station,-34.24223632,150.97726898,1,,0,,,NSW
251510,,Scarborough Station,-34.26552566,150.96541923,1,,0,,,NSW
251550,,Thirroul Station,-34.31801562,150.91891203,1,,0,,,NSW
251610,,Bulli Station,-34.33443113,150.91475593,1,,0,,,NSW
251710,,Woonona Station,-34.34964700,150.91513824,1,,0,,,NSW
251810,,Bellambi Station,-34.36264805,150.91011528,1,,0,,,NSW
251830,,Towradgi Station,-34.38441889,150.90134686,1,,0,,,NSW
252920,,Oak Flats Station,-34.57203376,150.82043996,1,,0,,,NSW
2529218,,Shellharbour Junction Station,-34.59134673,150.84470802,1,,0,,,NSW
253010,,Kembla Grange Station,-34.47018181,150.81760282,1,,0,,,NSW
253020,,Dapto Station,-34.49273841,150.79181569,1,,0,,,NSW
253310,,Minnamurra Station,-34.62628481,150.85287255,1,,0,,,NSW
253320,,Bombo Station,-34.65870177,150.85384014,1,,0,,,NSW
253330,,Kiama Station,-34.67266689,150.85445510,1,,0,,,NSW
253420,,Gerringong Station,-34.74466196,150.81760762,1,,0,,,NSW
253510,,Berry Station,-34.78038712,150.69669597,1,,0,,,NSW
254110,,Bomaderry Station,-34.85372077,150.60978184,1,,0,,,NSW
256020,,Campbelltown Station,-34.06355569,150.81463149,1,,0,,,NSW
256030,,Macarthur Station,-34.07199134,150.79716422,1,,0,,,NSW
256310,,Menangle Park Station,-34.10356765,150.74497444,1,,0,,,NSW
256810,,Menangle Station,-34.12534919,150.74436474,1,,0,,,NSW
256910,,Douglas Park Station,-34.18324664,150.71034950,1,,0,,,NSW
257110,,Picton Station,-34.17917983,150.61271220,1,,0,,,NSW
257310,,Tahmoor Station,-34.22352998,150.58995766,1,,0,,,NSW
257420,,Bargo Station,-34.29098717,150.58003730,1,,0,,,NSW
257510,,Mittagong Station,-34.45259021,150.44817385,1,,0,,,NSW
257540,,Yerrinbool Station,-34.37157933,150.54361194,1,,0,,,NSW
257610,,Bowral Station,-34.47817984,150.41663309,1,,0,,,NSW
257620,,Burradoo Station,-34.49420535,150.39785738,1,,0,,,NSW
257810,,Bundanoon Station,-34.65596932,150.29949924,1,,0,,,NSW
257910,,Wingello Station,-34.69219784,150.15821112,1,,0,,,NSW
257920,,Penrose Station,-34.67229417,150.21207796,1,,0,,,NSW
257930,,Exeter Station,-34.61362739,150.31744330,1,,0,,,NSW
257940,,Marulan Station,-34.70961588,150.00601372,1,,0,,,NSW
257950,,Tallong Station,-34.71836270,150.08618073,1,,0,,,NSW
258010,,Goulburn Station,-34.75829984,149.71935426,1,,0,,,NSW
G250564,,"Cringila Station, Five Islands Rd",-34.46759644,150.87845515,1,,0,,,NSW
G250569,,Five Islands Rd Opp Cringila Station,-34.46758256,150.87804108,1,,0,,,NSW
G250826,,Lawrence Hargrave Dr At Station St,-34.22844310,150.98358388,1,,0,,,NSW
G2519103,,"Fairy Meadow Station, Elliotts Rd",-34.39531455,150.89734206,1,,0,,,NSW
G252712,,Princes Hwy Opp Albion Park Station,-34.56351179,150.79787252,1,,0,,,NSW
G252713,,"Albion Park Station, Princes Hwy",-34.56371539,150.79856802,1,,0,,,NSW
G2569133,,Station St W Opp Douglas Park Station,-34.18347867,150.71042473,1,,0,,,NSW
G257363,,George St Opp Tahmoor Station,-34.22376284,150.59031473,1,,0,,,NSW
G257447,,Railside Av Opp Bargo Station,-34.29117024,150.57963247,1,,0,,,NSW
214240,,Granville Station,-33.83275764,151.01186867,1,,0,,,NSW
214710,,Seven Hills Station,-33.77435110,150.93612251,1,,0,,,NSW
214810,,Blacktown Station,-33.76854404,150.90708043,1,,0,,,NSW
2153477,,Norwest Station,-33.73461748,150.96352165,1,,0,,,NSW
2153478,,Bella Vista Station,-33.73056616,150.94401959,1,,0,,,NSW
2154391,,Castle Hill Station,-33.73162575,151.00728849,1,,0,,,NSW
2154392,,Hills Showground Station,-33.72791245,150.98702465,1,,0,,,NSW
2155382,,Kellyville Station,-33.71337441,150.93523145,1,,0,,,NSW
2155383,,Rouse Hill Station,-33.69181177,150.92416751,1,,0,,,NSW
2155384,,Tallawong Station,-33.69163119,150.90600569,1,,0,,,NSW
216010,,Merrylands Station,-33.83668568,150.99248668,1,,0,,,NSW
216110,,Guildford Station,-33.85443792,150.98439283,1,,0,,,NSW
216120,,Yennora Station,-33.86466386,150.97105333,1,,0,,,NSW
216510,,Fairfield Station,-33.87224505,150.95725354,1,,0,,,NSW
216610,,Canley Vale Station,-33.88732821,150.94353766,1,,0,,,NSW
216620,,Cabramatta Station,-33.89474039,150.93887636,1,,0,,,NSW
217010,,Warwick Farm Station,-33.91331588,150.93509547,1,,0,,,NSW
217020,,Liverpool Station,-33.92492704,150.92732848,1,,0,,,NSW
217310,,Holsworthy Station,-33.96319517,150.95658976,1,,0,,,NSW
217426,,Edmondson Park Station,-33.96932346,150.85880158,1,,0,,,NSW
217933,,Leppington Station,-33.95445703,150.80817012,1,,0,,,NSW
274710,,Werrington Station,-33.75916137,150.75759387,1,,0,,,NSW
274720,,Kingswood Station,-33.75842011,150.72053259,1,,0,,,NSW
275010,,Penrith Station,-33.75014862,150.69651584,1,,0,,,NSW
275310,,East Richmond Station,-33.60172876,150.75891556,1,,0,,,NSW
275320,,Richmond Station,-33.59884642,150.75264112,1,,0,,,NSW
275620,,Windsor Station,-33.61375217,150.81121394,1,,0,,,NSW
276010,,St Marys Station,-33.76210254,150.77518003,1,,0,,,NSW
276220,,Schofields Station,-33.70438029,150.87377461,1,,0,,,NSW
276310,,Quakers Hill Station,-33.72746287,150.88623397,1,,0,,,NSW
276510,,Riverstone Station,-33.67926177,150.86037985,1,,0,,,NSW
276610,,Rooty Hill Station,-33.77162507,150.84464747,1,,0,,,NSW
276710,,Doonside Station,-33.76389763,150.86869678,1,,0,,,NSW
277010,,Mount Druitt Station,-33.76955803,150.82012586,1,,0,,,NSW
G2147241,,Prospect Hwy After Station Rd,-33.76938694,150.94201292,1,,0,,,NSW
G2148211,,"Blacktown Police Station, Kildare Rd",-33.76883866,150.90489270,1,,0,,,NSW
G2745111,,Power Station Mulgoa Rd,-33.78352490,150.65071121,1,,0,,,NSW
G275012,,Henry St After Station St,-33.75191054,150.69606291,1,,0,,,NSW
G2750192,,"Howell Oval, Station St",-33.76056305,150.68670236,1,,0,,,NSW
G2750193,,"BlueBet Stadium, Station St",-33.75836088,150.68952113,1,,0,,,NSW
G2750233,,Derby St Before Station St,-33.75569265,150.69405680,1,,0,,,NSW
G2750234,,Station St At Union Lane,-33.75379282,150.69460097,1,,0,,,NSW
G2750238,,Station St After High St,-33.75357677,150.69489378,1,,0,,,NSW
G2750239,,Derby St After Station St,-33.75546958,150.69398249,1,,0,,,NSW
G2750264,,"Nepean Village, Station St",-33.75615832,150.69235053,1,,0,,,NSW
G2756270,,Substation Old Northern Rd,-33.42307740,150.97333398,1,,0,,,NSW
G2756280,,Substation Cattai Rd Near Halcrows Rd,-33.55005421,150.91882394,1,,0,,,NSW
G2756512,,"Lower Portland Fire Station, River Rd",-33.47984018,150.91077251,1,,0,,,NSW
G275662,,Sackville Rd Near Ebenezer Wharf Rd,-33.53871507,150.86970390,1,,0,,,NSW
G276218,,Junction Rd After Station St,-33.69335200,150.87601718,1,,0,,,NSW
G276230,,Railway Tce Opp Station St,-33.69668845,150.87020538,1,,0,,,NSW
G276524,,"Riverstone Ambulance Station, Hamilton St",-33.67236381,150.86914613,1,,0,,,NSW
222210,,Penshurst Station,-33.96620899,151.08884730,1,,0,,,NSW
222310,,Mortdale Station,-33.97104710,151.08100076,1,,0,,,NSW
222320,,Oatley Station,-33.98038470,151.07901413,1,,0,,,NSW
222610,,Como Station,-34.00461939,151.06824108,1,,0,,,NSW
222620,,Jannali Station,-34.01610952,151.06464581,1,,0,,,NSW
256010,,Leumeah Station,-34.05067661,150.83060671,1,,0,,,NSW
256410,,Macquarie Fields Station,-33.98483038,150.87887723,1,,0,,,NSW
256510,,Ingleburn Station,-33.99748219,150.86457694,1,,0,,,NSW
256610,,Minto Station,-34.02744354,150.84249432,1,,0,,,NSW
G2220302,,"Hurstville Fire Station, Butler Rd",-33.96804158,151.10198779,1,,0,,,NSW
G256312,,Cummins Rd Before Station St,-34.10404153,150.74981612,1,,0,,,NSW
G256817,,Station St After Menangle Rd,-34.12705682,150.73890284,1,,0,,,NSW
G256818,,Station St At Menangle Rd,-34.12711006,150.73863428,1,,0,,,NSW
G2570347,,Opp Cawdor Rd Sub Station,-34.07618719,150.67924334,1,,0,,,NSW
200070,,Town Hall Station,-33.87353896,151.20692991,1,,0,,,NSW
214110,,Lidcombe Station,-33.86375583,151.04512981,1,,0,,,NSW
214120,,Berala Station,-33.87178351,151.03252488,1,,0,,,NSW
214310,,Regents Park Station,-33.88319010,151.02401965,1,,0,,,NSW
214410,,Auburn Station,-33.84943010,151.03301684,1,,0,,,NSW
214610,,Toongabbie Station,-33.78738636,150.95144002,1,,0,,,NSW
215020,,Parramatta Station,-33.81749025,151.00532500,1,,0,,,NSW
216210,,Sefton Station,-33.88527733,151.01170402,1,,0,,,NSW
216220,,Chester Hill Station,-33.88365890,151.00025170,1,,0,,,NSW
216310,,Leightonfield Station,-33.88148108,150.98489517,1,,0,,,NSW
216320,,Villawood Station,-33.88083101,150.97685942,1,,0,,,NSW
219210,,Belmore Station,-33.91722531,151.08841509,1,,0,,,NSW
219310,,Hurlstone Park Station,-33.91020179,151.13248381,1,,0,,,NSW
219320,,Canterbury Station,-33.91208682,151.11873137,1,,0,,,NSW
219410,,Campsie Station,-33.91043503,151.10345755,1,,0,,,NSW
219510,,Lakemba Station,-33.91996087,151.07631124,1,,0,,,NSW
219520,,Wiley Park Station,-33.92276181,151.06791697,1,,0,,,NSW
219610,,Punchbowl Station,-33.92540504,151.05554778,1,,0,,,NSW
219910,,Yagoona Station,-33.90721147,151.02459877,1,,0,,,NSW
220010,,Bankstown Station,-33.91786888,151.03428744,1,,0,,,NSW
220310,,Dulwich Hill Station,-33.91094279,151.14072187,1,,0,,,NSW
220410,,Marrickville Station,-33.91386840,151.15335646,1,,0,,,NSW
221110,,Padstow Station,-33.95191691,151.03217663,1,,0,,,NSW
221210,,Revesby Station,-33.95251787,151.01519695,1,,0,,,NSW
221310,,Panania Station,-33.95427746,150.99826036,1,,0,,,NSW
G2144108,,Ampol Service Station Cumberland Rd,-33.86420807,151.02281421,1,,0,,,NSW
G2144156,,Station Rd After Parramatta Rd,-33.84414452,151.03922569,1,,0,,,NSW
G2144158,,Station Rd After Hall St,-33.84856307,151.03582703,1,,0,,,NSW
G2144161,,Station Rd Near Simpson St,-33.84602320,151.03771601,1,,0,,,NSW
G2144162,,Station Rd Before Parramatta Rd,-33.84388255,151.03924574,1,,0,,,NSW
G2144218,,Station Rd Near Hall St,-33.84742132,151.03657239,1,,0,,,NSW
G2145169,,Dunmore St At Station St,-33.80792884,150.97252806,1,,0,,,NSW
G2145391,,Station St Opp Mckern St,-33.81014377,150.97146476,1,,0,,,NSW
G2145392,,Station St Opp Bennett St,-33.81184820,150.97086357,1,,0,,,NSW
G2145394,,"Wentworthville Public School, Station St",-33.81445623,150.96990474,1,,0,,,NSW
G2145507,,Station St After Bennett St,-33.81140663,150.97086472,1,,0,,,NSW
G2145508,,Station St Before Pritchard St,-33.80943019,150.97151810,1,,0,,,NSW
G2145509,,Station St After Smith St,-33.81254521,150.97048561,1,,0,,,NSW
G2145543,,Dunmore St Before Station St,-33.80789015,150.97205132,1,,0,,,NSW
G2145564,,Station St Opp Perry St,-33.81101000,150.97114863,1,,0,,,NSW
G214575,,Smith St At Station St,-33.81283734,150.97008892,1,,0,,,NSW
G214632,,Wentworth Av Before Station Rd,-33.78439955,150.95381704,1,,0,,,NSW
G2164278,,"Smithfield Fire Station, The Horsley Dr",-33.85085576,150.92282855,1,,0,,,NSW
G216517,,Smart St Opp Fairfield Police Station,-33.87003277,150.95599543,1,,0,,,NSW
G216568,,Fairfield Heights Public School Station St,-33.86542737,150.94029286,1,,0,,,NSW
G216571,,Station St At Sackville St,-33.86682918,150.94969030,1,,0,,,NSW
G216574,,Station St After Sackville St,-33.86666273,150.94841879,1,,0,,,NSW
G216575,,Station St Near Granville St,-33.86636650,150.94669843,1,,0,,,NSW
G216576,,Station St Near Marlborough St,-33.86598023,150.94413138,1,,0,,,NSW
G2166101,,Hungry Jacks And Bp Service Station,-33.89946988,150.92058309,1,,0,,,NSW
G2166132,,"Cabramatta Fire Station, Joseph St",-33.88864252,150.92300422,1,,0,,,NSW
G2166190,,"Bradbury Wharf, Silverwater Cres",-33.90082808,150.95471781,1,,0,,,NSW
G2166201,,Silverwater Cres Opp Bradbury Wharf,-33.90090078,150.95441860,1,,0,,,NSW
G2170145,,Bp Service Station Nuwarra Rd,-33.92980907,150.95549682,1,,0,,,NSW
G2170191,,Mobil Service Station Town View Rd,-33.89737979,150.91236115,1,,0,,,NSW
G2170693,,"Warwick Farm Station, Hume Hwy",-33.91214831,150.93581989,1,,0,,,NSW
G217715,,Gloucester St Opp Bonnyrigg Fire Station,-33.88944026,150.86133265,1,,0,,,NSW
G217728,,"Bonnyrigg Fire Station, Gloucester St",-33.88933348,150.86157635,1,,0,,,NSW
G221419,,Ashford Village And Bp Service Station,-33.93788028,150.98987088,1,,0,,,NSW
G2234116,,"Menai Ambulance Station, Menai Rd",-34.01590390,151.01254602,1,,0,,,NSW
200080,,Wynyard Station,-33.86594489,151.20610310,1,,0,,,NSW
206010,,North Sydney Station,-33.84115005,151.20741233,1,,0,,,NSW
206044,,Victoria Cross Station,-33.83772725,151.20738465,1,,0,,,NSW
206110,,Milsons Point Station,-33.84593610,151.21183697,1,,0,,,NSW
206516,,Crows Nest Station,-33.82562030,151.19913651,1,,0,,,NSW
206520,,St Leonards Station,-33.82223190,151.19413439,1,,0,,,NSW
207710,,Waitara Station,-33.71036513,151.10494081,1,,0,,,NSW
207730,,Asquith Station,-33.68852348,151.10820109,1,,0,,,NSW
207910,,Mount Colah Station,-33.67174586,151.11469754,1,,0,,,NSW
208010,,Mount Kuring-gai Station,-33.65358907,151.13682391,1,,0,,,NSW
208110,,Berowra Station,-33.62338518,151.15323454,1,,0,,,NSW
211310,,Macquarie University Station,-33.77728198,151.11826703,1,,0,,,NSW
211340,,Macquarie Park Station,-33.78507995,151.12837418,1,,0,,,NSW
211750,,Telopea Light Rail,-33.79440601,151.04114725,1,,0,,,NSW
2118249,,Carlingford Light Rail,-33.78197129,151.04718770,1,,0,,,NSW
211910,,Beecroft Station,-33.74927233,151.06660668,1,,0,,,NSW
212020,,Pennant Hills Station,-33.73791201,151.07255151,1,,0,,,NSW
212110,,Epping Station,-33.77283671,151.08208231,1,,0,,,NSW
212210,,Eastwood Station,-33.79030086,151.08229721,1,,0,,,NSW
2126158,,Cherrybrook Station,-33.73665917,151.03199446,1,,0,,,NSW
214010,,Homebush Station,-33.86668795,151.08619478,1,,0,,,NSW
214020,,Flemington Station,-33.86491214,151.07017841,1,,0,,,NSW
214510,,Westmead Station,-33.80847754,150.98789237,1,,0,,,NSW
214520,,Wentworthville Station,-33.80706891,150.97236952,1,,0,,,NSW
214530,,Pendle Hill Station,-33.80120445,150.95608040,1,,0,,,NSW
214820,,Marayong Station,-33.74609965,150.90017109,1,,0,,,NSW
2150149,,Prince Alfred Square Light Rail,-33.80906745,151.00525566,1,,0,,,NSW
222910,,Caringbah Station,-34.04157831,151.12202571,1,,0,,,NSW
223020,,Cronulla Station,-34.05578475,151.15149843,1,,0,,,NSW
275020,,Emu Plains Station,-33.74572534,150.67142718,1,,0,,,NSW
275610,,Mulgrave Station,-33.62651620,150.83003584,1,,0,,,NSW
275630,,Clarendon Station,-33.60858478,150.78789489,1,,0,,,NSW
276520,,Vineyard Station,-33.65030770,150.85115431,1,,0,,,NSW
2768131,,"Bella Vista Station, North West Tway",-33.73297777,150.94299766,1,,0,,,NSW
G212027,,Pennant Hills Rd At Station St,-33.73187879,151.07979343,1,,0,,,NSW
G2145103,,Dunmore St Opp Wentworthville Station,-33.80786737,150.97164007,1,,0,,,NSW
G2145119,,Smith St After Station St,-33.81295709,150.97000810,1,,0,,,NSW
G2147240,,Abbott Rd Before Station Rd,-33.76802519,150.94514417,1,,0,,,NSW
G2147263,,Station Rd After Powers Rd,-33.77324032,150.94408875,1,,0,,,NSW
G2147265,,Station Rd After Abbott Rd,-33.76988234,150.94342752,1,,0,,,NSW
G2147266,,Station Rd After Park Rd,-33.77205468,150.94396959,1,,0,,,NSW
G2147267,,Powers Rd After Station Rd,-33.77390628,150.94524150,1,,0,,,NSW
200050,,St James Station,-33.87062216,151.21186309,1,,0,,,NSW
200952,,Fish Market Light Rail,-33.87089194,151.19235857,1,,0,,,NSW
20601,,McMahons Point Wharf,-33.84865793,151.20628004,1,,0,,,NSW
206020,,Waverton Station,-33.83761830,151.19738129,1,,0,,,NSW
206410,,Artarmon Station,-33.80854241,151.18470089,1,,0,,,NSW
206510,,Wollstonecraft Station,-33.83194479,151.19174851,1,,0,,,NSW
206710,,Chatswood Station,-33.79723668,151.18093364,1,,0,,,NSW
206910,,Roseville Station,-33.78443617,151.17766673,1,,0,,,NSW
207010,,Lindfield Station,-33.77552136,151.16927068,1,,0,,,NSW
207310,,Pymble Station,-33.74477962,151.14226141,1,,0,,,NSW
207620,,Normanhurst Station,-33.72082663,151.09707210,1,,0,,,NSW
211099,,Woolwich Wharf,-33.83859616,151.17605072,1,,0,,,NSW
211320,,North Ryde Station,-33.79421813,151.13798663,1,,0,,,NSW
211420,,West Ryde Station,-33.80719476,151.09019218,1,,0,,,NSW
211430,,Meadowbank Station,-33.81579356,151.09010555,1,,0,,,NSW
211497,,Meadowbank Wharf,-33.82103535,151.08990208,1,,0,,,NSW
212010,,Thornleigh Station,-33.73189695,151.07815508,1,,0,,,NSW
212710,,Olympic Park Station,-33.84659492,151.06932974,1,,0,,,NSW
213820,,Rhodes Station,-33.83049189,151.08704933,1,,0,,,NSW
G200055,,"Museum Station, Elizabeth St",-33.87522017,151.20966977,1,,0,,,NSW
G204625,,"Abbotsford Wharf, Great North Rd",-33.84506411,151.12855149,1,,0,,,NSW
G206113,,"Milsons Point Station, Broughton St",-33.84658156,151.21272174,1,,0,,,NSW
G206114,,Broughton St Opp Milsons Point Station,-33.84508276,151.21255087,1,,0,,,NSW
G206120,,"Milsons Point Wharf, Alfred St Sth",-33.84990544,151.21142739,1,,0,,,NSW
G20652,,"Greenwich Point Wharf, Lower Serpentine Rd",-33.84181510,151.18102333,1,,0,,,NSW
G209513,,"Manly Wharf, Belgrave St",-33.79782227,151.28473608,1,,0,,,NSW
G211215,,Victoria Rd Opp Ryde Police Station,-33.81533933,151.10051160,1,,0,,,NSW
G2112251,,"Ryde Fire Station, Blaxland Rd",-33.80867510,151.10581671,1,,0,,,NSW
G211327,,Delhi Rd Opp North Ryde Station,-33.79480481,151.14063734,1,,0,,,NSW
G211414,,"Jennifer Park, Wharf Rd",-33.81202556,151.07221232,1,,0,,,NSW
G2114157,,Wharf Rd Before Taylor Av,-33.81023476,151.07159842,1,,0,,,NSW
G211437,,Station St Opp St Michael's Primary School,-33.81320171,151.08675443,1,,0,,,NSW
G211439,,"Meadowbank Station, Railway Rd",-33.81662232,151.09038255,1,,0,,,NSW
G211455,,Taylor Av Before Wharf Rd,-33.81151713,151.07232852,1,,0,,,NSW
G211456,,Wharf Rd Before Appleroth St,-33.80932310,151.07110181,1,,0,,,NSW
G211457,,Wharf Rd Near Victoria Rd,-33.80791200,151.07072184,1,,0,,,NSW
G211475,,Wharf Rd Opp Jennifer Park,-33.81215686,151.07205664,1,,0,,,NSW
G211480,,Hope St After Wharf Rd,-33.81381040,151.07218909,1,,0,,,NSW
G211481,,Hope St Before Wharf Rd,-33.81365061,151.07211674,1,,0,,,NSW
G211511,,Victoria Rd At Wharf Rd,-33.80743537,151.07014874,1,,0,,,NSW
G2137110,,"Concord Fire Station, Wellbank St",-33.85830128,151.09264195,1,,0,,,NSW
G2137112,,"Concord Fire Station, Concord Rd",-33.85848476,151.09227271,1,,0,,,NSW
200030,,Martin Place Station,-33.86764769,151.21058267,1,,1,,,NSW
200040,,Museum Station,-33.87557110,151.20994628,1,,1,,,NSW
201110,,Kings Cross Station,-33.87448343,151.22222820,1,,1,,,NSW
201520,,Macdonaldtown Station,-33.89695934,151.18569469,1,,0,,,NSW
201710,,Green Square Station,-33.90607818,151.20257663,1,,1,,,NSW
202010,,Mascot Station,-33.92317637,151.18733540,1,,1,,,NSW
202020,,Domestic Airport Station,-33.93362984,151.18065972,1,,1,,,NSW
202030,,International Airport Station,-33.93497091,151.16584068,1,,1,,,NSW
202210,,Bondi Junction Station,-33.89119702,151.24837675,1,,1,,,NSW
202710,,Edgecliff Station,-33.87937104,151.23625289,1,,1,,,NSW
204310,,Erskineville Station,-33.90018265,151.18549590,1,,1,,,NSW
204410,,St Peters Station,-33.90727298,151.18074263,1,,1,,,NSW
204420,,Sydenham Station,-33.91445896,151.16652644,1,,1,,,NSW
204430,,Tempe Station,-33.92390407,151.15660038,1,,0,,,NSW
207110,,Killara Station,-33.76569908,151.16184659,1,,1,,,NSW
207210,,Gordon Station,-33.75591148,151.15444755,1,,1,,,NSW
207410,,Turramurra Station,-33.73258635,151.12863644,1,,1,,,NSW
207420,,Warrawee Station,-33.72439856,151.12182775,1,,1,,,NSW
207610,,Wahroonga Station,-33.71804522,151.11754490,1,,1,,,NSW
208120,,Cowan Station,-33.59356714,151.17177424,1,,0,,,NSW
208310,,Hawkesbury River Station,-33.54684344,151.22657548,1,,1,,,NSW
211410,,Denistone Station,-33.79962625,151.08692825,1,,1,,,NSW
211920,,Cheltenham Station,-33.75561151,151.07845967,1,,1,,,NSW
213710,,North Strathfield Station,-33.85918843,151.08818062,1,,1,,,NSW
213810,,Concord West Station,-33.84860505,151.08562376,1,,1,,,NSW
214230,,Clyde Station,-33.83595319,151.01694198,1,,0,,,NSW
214320,,Birrong Station,-33.89258874,151.02427803,1,,1,,,NSW
215010,,Harris Park Station,-33.82335268,151.00765002,1,,0,,,NSW
216330,,Carramar Station,-33.88445193,150.96098356,1,,0,,,NSW
217030,,Casula Station,-33.95021052,150.91182891,1,,1,,,NSW
220510,,Wolli Creek Station,-33.92853822,151.15411287,1,,1,,,NSW
220520,,Arncliffe Station,-33.93678246,151.14717400,1,,1,,,NSW
220530,,Turrella Station,-33.92979582,151.14033853,1,,1,,,NSW
220710,,Bardwell Park Station,-33.93130976,151.12559243,1,,0,,,NSW
220720,,Bexley North Station,-33.93750842,151.11377376,1,,1,,,NSW
220810,,Kingsgrove Station,-33.94048235,151.10081465,1,,1,,,NSW
220910,,Beverly Hills Station,-33.94912063,151.08086032,1,,1,,,NSW
220920,,Narwee Station,-33.94767733,151.07058514,1,,1,,,NSW
221010,,Riverwood Station,-33.95139401,151.05245738,1,,1,,,NSW
221610,,Banksia Station,-33.94499641,151.14058914,1,,1,,,NSW
221620,,Rockdale Station,-33.95224818,151.13661619,1,,1,,,NSW
221710,,Kogarah Station,-33.96254149,151.13248719,1,,1,,,NSW
221810,,Carlton Station,-33.96824293,151.12450153,1,,1,,,NSW
222020,,Allawah Station,-33.96972995,151.11454867,1,,1,,,NSW
222710,,Gymea Station,-34.03486950,151.08526089,1,,1,,,NSW
222810,,Miranda Station,-34.03625439,151.10209197,1,,1,,,NSW
223010,,Woolooware Station,-34.04754097,151.14375723,1,,1,,,NSW
223230,,Kirrawee Station,-34.03497564,151.07121805,1,,1,,,NSW
225010,,Wondabyne Station,-33.49214559,151.25699945,1,,0,,,NSW
225020,,Tascott Station,-33.45091719,151.31860852,1,,0,,,NSW
225030,,Point Clare Station,-33.44625901,151.32841514,1,,1,,,NSW
225040,,Gosford Station,-33.42348495,151.34173360,1,,1,,,NSW
225060,,Niagara Park Station,-33.38307663,151.35458344,1,,1,,,NSW
225070,,Lisarow Station,-33.38209529,151.37017048,1,,1,,,NSW
2250772,,Narara Station,-33.39461057,151.34452641,1,,1,,,NSW
225610,,Woy Woy Station,-33.48572837,151.32330628,1,,1,,,NSW
225620,,Koolewong Station,-33.46639025,151.31850646,1,,0,,,NSW
225810,,Ourimbah Station,-33.35974907,151.36999584,1,,1,,,NSW
225910,,Tuggerah Station,-33.30772394,151.42020531,1,,1,,,NSW
225920,,Wyong Station,-33.28539097,151.42523404,1,,1,,,NSW
225930,,Warnervale Station,-33.24732964,151.44885085,1,,0,,,NSW
225940,,Wyee Station,-33.18007088,151.48708552,1,,1,,,NSW
226410,,Morisset Station,-33.10896063,151.48814873,1,,1,,,NSW
226420,,Dora Creek Station,-33.08371456,151.50094658,1,,0,,,NSW
228310,,Awaba Station,-33.01297684,151.54212359,1,,0,,,NSW
228330,,Fassifern Station,-32.98563743,151.58094353,1,,1,,,NSW
228410,,Booragul Station,-32.97170853,151.60494259,1,,0,,,NSW
228420,,Teralba Station,-32.96253817,151.60347199,1,,0,,,NSW
228430,,Cockle Creek Station,-32.94267124,151.62376463,1,,0,,,NSW
228520,,Cardiff Station,-32.94142086,151.66266152,1,,1,,,NSW
228910,,Kotara Station,-32.94159203,151.69793551,1,,0,,,NSW
228920,,Adamstown Station,-32.93365273,151.72020335,1,,1,,,NSW
229210,,Broadmeadow Station,-32.92272405,151.73499102,1,,1,,,NSW
230310,,Hamilton Station,-32.91846324,151.74849800,1,,1,,,NSW
250010,,North Wollongong Station,-34.41227335,150.89138888,1,,1,,,NSW
250030,,Coniston Station,-34.43785604,150.88512644,1,,0,,,NSW
250510,,Lysaghts Station,-34.45416603,150.87575550,1,,0,,,NSW
250520,,Cringila Station,-34.46711957,150.87843306,1,,0,,,NSW
250840,,Stanwell Park Station,-34.22641608,150.98108007,1,,0,,,NSW
251520,,Wombarra Station,-34.27547081,150.95352385,1,,0,,,NSW
251530,,Coledale Station,-34.28967298,150.94314925,1,,0,,,NSW
251540,,Austinmer Station,-34.30645714,150.92923261,1,,0,,,NSW
251820,,Corrimal Station,-34.37560886,150.90493692,1,,1,,,NSW
251910,,Fairy Meadow Station,-34.39521697,150.89644618,1,,1,,,NSW
252610,,Unanderra Station,-34.45457966,150.84615381,1,,1,,,NSW
252710,,Albion Park Station,-34.56285582,150.79868137,1,,1,,,NSW
275030,,Lapstone Station,-33.77345788,150.64280498,1,,1,,,NSW
277310,,Glenbrook Station,-33.76911515,150.62104944,1,,1,,,NSW
277410,,Blaxland Station,-33.74374219,150.60978672,1,,1,,,NSW
277420,,Warrimoo Station,-33.72140832,150.60273514,1,,0,,,NSW
277610,,Faulconbridge Station,-33.69659330,150.53493365,1,,1,,,NSW
277710,,Valley Heights Station,-33.70433308,150.58374369,1,,0,,,NSW
277720,,Springwood Station,-33.69905654,150.56366276,1,,1,,,NSW
277810,,Woodford Station,-33.73567216,150.48171549,1,,0,,,NSW
277820,,Linden Station,-33.71489917,150.50520665,1,,0,,,NSW
277910,,Hazelbrook Station,-33.72368467,150.45415753,1,,1,,,NSW
278010,,Leura Station,-33.71207455,150.33095833,1,,1,,,NSW
278020,,Katoomba Station,-33.71203514,150.31166184,1,,1,,,NSW
278030,,Medlow Bath Station,-33.67355520,150.28064561,1,,1,,,NSW
278210,,Wentworth Falls Station,-33.70951523,150.37637161,1,,1,,,NSW
278310,,Lawson Station,-33.71910060,150.42980295,1,,0,,,NSW
278410,,Bullaburra Station,-33.72338686,150.41500219,1,,0,,,NSW
278510,,Blackheath Station,-33.63374163,150.28438143,1,,1,,,NSW
278610,,Mount Victoria Station,-33.58820075,150.25692324,1,,0,,,NSW
278620,,Bell Station,-33.50568919,150.27905756,1,,0,,,NSW
278630,,Zig Zag Station,-33.47175842,150.20200389,1,,0,,,NSW
279010,,Lithgow Station,-33.48066213,150.15680800,1,,1,,,NSW
G2250344,,The Avenue Opp Kariong Fire Station,-33.43371131,151.29704740,1,,0,,,NSW
G2251212,,Henderson Rd Opp Saratoga Veterans Hall Wharf,-33.48112455,151.34336523,1,,0,,,NSW
G2256165,,Brick Wharf Rd At The Boulevarde,-33.48396956,151.32593897,1,,0,,,NSW
G2256166,,Brick Wharf Rd Opp 95,-33.48472109,151.32892244,1,,0,,,NSW
G2256167,,Brick Wharf Rd Opp Sonter Av,-33.48534325,151.33199628,1,,0,,,NSW
G2256168,,"Woy Woy Bowling Club, Brick Wharf Rd",-33.48598229,151.33432911,1,,0,,,NSW
G2256169,,North Burge Rd After Brick Wharf Rd,-33.48750265,151.33413618,1,,0,,,NSW
G2256206,,North Burge Rd Before Brick Wharf Rd,-33.48834478,151.33350081,1,,0,,,NSW
G2256207,,Brick Wharf Rd Opp Woy Woy Bowling Club,-33.48614305,151.33436939,1,,0,,,NSW
G2256208,,Brick Wharf Rd At Sonter Av,-33.48537177,151.33169665,1,,0,,,NSW
G2256209,,95 Brick Wharf Rd,-33.48483651,151.32897120,1,,0,,,NSW
G2256213,,Victoria Rd After Station St,-33.48996789,151.32316250,1,,0,,,NSW
G225627,,"Koolewong Station, Glenrock Pde",-33.46568983,151.31792342,1,,0,,,NSW
G225637,,Railway St At Station St,-33.48829247,151.32083183,1,,0,,,NSW
G2256477,,Woy Woy Station,-33.48562006,151.32356969,1,,0,,,NSW
G225828,,Brownlee St Opp Ourimbah Station,-33.35778840,151.37015532,1,,0,,,NSW
G2260119,,"NSW Ambulance Service Terrigal Station, Terrigal Dr",-33.43925742,151.42702716,1,,0,,,NSW
G2260123,,Charles Kay Dr Opp NSW Ambulance Service Terrigal Station,-33.43998135,151.42794516,1,,0,,,NSW
G2262116,,Pacific Hwy Opp Doyalson Ambulance Station,-33.19809994,151.52427872,1,,0,,,NSW
G2262139,,"Doyalson Ambulance Station, Pacific Hwy",-33.19824998,151.52362210,1,,0,,,NSW
G226252,,Scenic Dr Opp Colongra Power Station,-33.21279194,151.53024469,1,,0,,,NSW
G226273,,"Colongra Power Station, Scenic Dr",-33.21247411,151.53031402,1,,0,,,NSW
G2263244,,Norman St Opp Toukley Fire Station,-33.26394849,151.54439556,1,,0,,,NSW
G226327,,"Toukley Fire Station, Main Rd",-33.26431085,151.54483257,1,,0,,,NSW
G226363,,"Toukley Fire Station, Norman St",-33.26417913,151.54449331,1,,0,,,NSW
G228111,,Cams Wharf Rd Opp Crangan Bay Dr,-33.12634627,151.61517802,1,,0,,,NSW
G228113,,Pacific Hwy At Nords Wharf Rd,-33.13437309,151.61201209,1,,0,,,NSW
G228114,,Pacific Hwy At Cams Wharf Rd,-33.13073174,151.62564344,1,,0,,,NSW
G2281188,,"Rural Fire Station, Flowers Dr",-33.14377303,151.62620060,1,,0,,,NSW
G2281196,,Nords Wharf Rd Before Government Rd,-33.13156093,151.60622227,1,,0,,,NSW
G2281253,,Cams Wharf Rd After Raffertys Rd,-33.12648311,151.61513167,1,,0,,,NSW
G228144,,Nords Wharf Rd After Government Rd,-33.13176246,151.60661826,1,,0,,,NSW
208877,,Mosman Bay Wharf,-33.83839940,151.23271503,1,,0,,,NSW
208899,,Taronga Zoo Wharf,-33.84588770,151.23974721,1,,0,,,NSW
208943,,Neutral Bay Wharf,-33.84197885,151.21899554,1,,0,,,NSW
210844,,Palm Beach Wharf,-33.59584616,151.31986711,1,,0,,,NSW
G2088152,,"South Mosman Wharf, Musgrave St",-33.84282431,151.23294439,1,,0,,,NSW
G209034,,Milson Rd Near Wharf Rd,-33.84575289,151.22952577,1,,0,,,NSW
G209035,,"Cremorne Point Wharf, Milson Rd",-33.84730703,151.23044474,1,,0,,,NSW
G209515,,"Quarantine Station, North Head Scenic Dr",-33.81235995,151.29466879,1,,0,,,NSW
G209519,,"Manly Wharf, West Promenade",-33.79781141,151.28427150,1,,0,,,NSW
G209523,,"Manly Wharf, West Esplanade",-33.79892778,151.28377686,1,,0,,,NSW
G209579,,"Manly Wharf, East Esplanade",-33.79942319,151.28455700,1,,0,,,NSW
G209586,,"Manly Wharf Hotel, East Esplanade",-33.80013969,151.28571512,1,,0,,,NSW
G210515,,McCarrs Creek Rd Near Cargo Wharf,-33.64590472,151.28155433,1,,0,,,NSW
G210535,,"Church Point Wharf, Pittwater Rd",-33.64497690,151.28466459,1,,0,,,NSW
G210536,,Pittwater Rd Near Ferry Wharf,-33.64636962,151.28581096,1,,0,,,NSW
G210761,,Hudson Rd Near Old Wharf Reserve,-33.63045460,151.31566279,1,,0,,,NSW
G210829,,Barrenjoey Rd Opp Palm Beach Wharf,-33.59680095,151.32038851,1,,0,,,NSW
200046,,Barangaroo Station,-33.85957698,151.20261517,1,,1,,,NSW
200066,,Gadigal Station,-33.87308122,151.20872206,1,,1,,,NSW
201721,,Waterloo Station,-33.89744549,151.20023991,1,,1,,,NSW
202972,,Rose Bay Wharf,-33.87080248,151.26234513,1,,0,,,NSW
203294,,Juniors Kingsford Light Rail,-33.92516263,151.22932487,1,,0,,,NSW
G2000320,,"Museum Station, Elizabeth St, Stand B",-33.87607724,151.20963632,1,,0,,,NSW
G2000421,,"Martin Place Station, Elizabeth St",-33.86781638,151.21065577,1,,0,,,NSW
G200049,,"Museum Station, Downing Centre",-33.87765487,151.20934665,1,,0,,,NSW
G200058,,"Museum Station, Castlereagh St",-33.87725882,151.20880868,1,,0,,,NSW
G200071,,"Museum Station, Liverpool St",-33.87684442,151.21038698,1,,0,,,NSW
G200077,,"Martin Place Station, Castlereagh St",-33.86777924,151.20989789,1,,0,,,NSW
G201140,,Cowper Wharf Rdwy After Wylde St,-33.86676503,151.22371601,1,,0,,,NSW
G201141,,Cowper Wharf Rdwy At Brougham St,-33.86873810,151.22266846,1,,0,,,NSW
G201142,,Cowper Wharf Rd Before Bourke St,-33.86915391,151.21974033,1,,0,,,NSW
G201146,,Cowper Wharf Rdwy Opp Brougham St,-33.86891591,151.22221280,1,,0,,,NSW
G201147,,Cowper Wharf Rdwy Opp Wylde St,-33.86542210,151.22425458,1,,0,,,NSW
G201622,,"Redfern Station, Regent St, Stand C",-33.89297745,151.20021495,1,,0,,,NSW
G221668,,"Rockdale Station, Princes Hwy, Stand E",-33.95252159,151.13786201,1,,0,,,NSW
G2144179,,Parramatta Rd At Station Rd,-33.84355700,151.04010508,1,,0,,,NSW
G2207121,,"Bexley North Station, Bexley Rd",-33.93872782,151.11422168,1,,0,,,NSW
G220958,,"Narwee Station, Penshurst Rd",-33.94698290,151.07087637,1,,0,,,NSW
G2217106,,Railway St After Station St,-33.96441352,151.13174524,1,,0,,,NSW
G221751,,Wharf Rd After Mayor St,-33.98545916,151.12295486,1,,0,,,NSW
G221752,,Wharf Rd At Carlton Cres,-33.98700813,151.12324612,1,,0,,,NSW
G221794,,Carlton Cres At Wharf Rd,-33.98708161,151.12293600,1,,0,,,NSW
G221795,,Wharf Rd Before Mayor St,-33.98577835,151.12284051,1,,0,,,NSW
G221796,,"Elizabeth Corry Reserve, Wharf Rd",-33.98480219,151.12266350,1,,0,,,NSW
G222721,,Shell Service Station Gymea Bay Rd,-34.04211474,151.08360647,1,,0,,,NSW
G222881,,"Miranda Fire Station, The Boulevard",-34.03028767,151.10753998,1,,0,,,NSW
G2230170,,"Bundeena Fire Station, Bundeena Dr",-34.08408371,151.14540963,1,,0,,,NSW
G2230200,,Bundeena Dr Opp Bundeena Fire Station,-34.08399266,151.14543767,1,,0,,,NSW
G2232254,,"Sutherland Station, East Pde",-34.03062434,151.05759024,1,,0,,,NSW
G2233119,,Old Princes Hwy At Station St,-34.06564099,151.01285732,1,,0,,,NSW
G223312,,Station St Opp Court Lane,-34.06598110,151.01292751,1,,0,,,NSW
24801093,,Lismore Historic Railway Station,-28.81013447,153.26892884,1,,0,,,NSW
26501,,Wagga Wagga Station,-35.12041620,147.36845635,1,,0,,,NSW
27871,,Tarana Station,-33.52424309,149.90749500,1,,0,,,NSW
G2070124,,Charles St At Fiddens Wharf Rd,-33.77851785,151.14696263,1,,0,,,NSW
G207111,,Pacific Hwy Before Fiddens Wharf Rd,-33.77112090,151.16084689,1,,0,,,NSW
G207149,,Lady Game Dr Before Fiddens Wharf Rd,-33.77469431,151.14839647,1,,0,,,NSW
G207160,,Lady Game Dr After Fiddens Wharf Rd,-33.77455118,151.14809825,1,,0,,,NSW
G207165,,Charles St Before Fiddens Wharf Rd,-33.77829963,151.14621839,1,,0,,,NSW
G207193,,Golf Links Rd At Fiddens Wharf Rd,-33.77289580,151.15257132,1,,0,,,NSW
G207197,,Fiddens Wharf Rd Opp Cook Rd,-33.77174055,151.15663686,1,,0,,,NSW
G207315,,Telegraph Rd At Station St,-33.73889673,151.14599010,1,,0,,,NSW
G207317,,Telegraph Rd Opp Station St,-33.73874815,151.14585353,1,,0,,,NSW
G207342,,Merrivale Rd At Station St,-33.73627127,151.14502240,1,,0,,,NSW
G2077154,,"Waitara Station, Yardley Av",-33.71102603,151.10403432,1,,0,,,NSW
G208324,,Brooklyn Rd After Wharf St,-33.54881004,151.20590346,1,,0,,,NSW
G208328,,Brooklyn Rd Opp Wharf St,-33.54908143,151.20507730,1,,0,,,NSW
G2120182,,"Thornleigh Station, Bellevue St",-33.73108604,151.07978820,1,,0,,,NSW
2000267,,Shark Island Wharf,-33.85947651,151.25794749,1,,1,,,NSW
2000270,,"Darling Harbour, King Street Wharf",-33.86645469,151.20120305,1,,1,,,NSW
2030164,,Watsons Bay Wharf,-33.84330045,151.28168589,1,,0,,,NSW
20414,,Balmain East Wharf,-33.85706847,151.19586120,1,,1,,,NSW
204156,,Birchgrove Wharf,-33.84659783,151.18610511,1,,0,,,NSW
206133,,Jeffrey Street Wharf,-33.84975538,151.21396846,1,,0,,,NSW
206518,,Greenwich Point Wharf,-33.84197753,151.18075051,1,,1,,,NSW
206519,,Greenwich Wharf,-33.83404663,151.18240424,1,,0,,,NSW
206614,,Northwood Wharf,-33.83248974,151.17863589,1,,0,,,NSW
206615,,Longueville Wharf,-33.83606473,151.16939522,1,,0,,,NSW
206616,,Riverview College Wharf,-33.82979275,151.15610234,1,,1,,,NSW
208339,,Brooklyn Wharf,-33.54641791,151.22742630,1,,0,,,NSW
208340,,Dangar Island Wharf,-33.53678474,151.24114759,1,,1,,,NSW
209573,,Manly Wharf,-33.79954086,151.28428229,1,,0,,,NSW
210533,,"Morning Bay, Halls Wharf",-33.63017479,151.28697824,1,,1,,,NSW
210546,,Lovett Wharf,-33.63337087,151.27665686,1,,1,,,NSW
210547,,South Elvina Wharf,-33.63936125,151.27798760,1,,1,,,NSW
210548,,"Scotland Island, Eastern Wharf",-33.64151175,151.29518902,1,,1,,,NSW
210549,,"Scotland Island, Carols Wharf",-33.64405647,151.29170697,1,,1,,,NSW
210551,,"Scotland Island, Bells Wharf",-33.64119625,151.28664210,1,,1,,,NSW
210552,,"Scotland Island, Tennis Wharf",-33.63620248,151.29241527,1,,1,,,NSW
210553,,Church Point Wharf,-33.64433671,151.28390031,1,,1,,,NSW
210666,,Newport Wharf,-33.65989860,151.30790171,1,,1,,,NSW
210845,,Bennets Wharf,-33.60307009,151.30029852,1,,1,,,NSW
210846,,The Basin Wharf,-33.60401475,151.29360533,1,,1,,,NSW
210847,,Currawong Beach Wharf,-33.59702195,151.29959942,1,,1,,,NSW
210848,,Mackerel Beach Wharf,-33.59042081,151.30132748,1,,1,,,NSW
210849,,Bonnie Doon Wharf,-33.60593057,151.29447571,1,,1,,,NSW
2110114,,Hunters Hill Wharf,-33.83572905,151.16067655,1,,0,,,NSW
2230193,,Bundeena Wharf,-34.08274719,151.15109433,1,,1,,,NSW
2230194,,Cronulla Wharf,-34.05617314,151.14987198,1,,0,,,NSW
225113,,Saratoga Veterans Hall Wharf,-33.48116010,151.34363580,1,,1,,,NSW
225114,,"Davistown, Central RSL Wharf",-33.48650089,151.36033206,1,,1,,,NSW
225115,,"Davistown, Lintern Street Wharf",-33.48466805,151.35302557,1,,1,,,NSW
225116,,"Davistown, Pine Avenue Wharf",-33.48939455,151.36360630,1,,1,,,NSW
2256224,,Little Wobby Wharf,-33.54998499,151.24951971,1,,0,,,NSW
2256225,,Woy Woy Wharf,-33.48324860,151.32491389,1,,1,,,NSW
2257279,,Ettalong Wharf,-33.51684548,151.34187237,1,,1,,,NSW
2257280,,Wagstaffe Wharf,-33.52291514,151.34348853,1,,1,,,NSW
2257281,,Empire Bay Wharf,-33.49326390,151.36399431,1,,1,,,NSW
246412,,Yamba Wharf,-29.43555270,153.35720138,1,,0,,,NSW
246612,,Iluka Wharf,-29.40379191,153.34635980,1,,0,,,NSW
232020,,Maitland Station,-32.73800633,151.55209853,1,,0,,,NSW
G229831,,"St Phillip's College, Station St",-32.90281720,151.72333624,1,,0,,,NSW
G232185,,"Neath Fire Station, Maitland Rd",-32.82730028,151.40718531,1,,0,,,NSW
G232623,,Station St Before First St,-32.81423315,151.45882876,1,,0,,,NSW
G232637,,Station St At First St,-32.81415208,151.45908076,1,,0,,,NSW
G232722,,"Kurri Kurri Fire Station, Lang St",-32.81684154,151.48387215,1,,0,,,NSW
G233564,,Station St Opp Rosary Park Catholic School,-32.65787544,151.34681761,1,,0,,,NSW
229574,,Stockton Wharf,-32.91967651,151.78251442,1,,0,,,NSW
230410,,Waratah Station,-32.90218201,151.73106539,1,,0,,,NSW
230420,,Warabrook Station,-32.88738021,151.71016270,1,,0,,,NSW
232030,,Telarah Station,-32.72335662,151.53973566,1,,0,,,NSW
232050,,Mindaribba Station,-32.66831436,151.58442635,1,,0,,,NSW
232230,,Beresfield Station,-32.79929092,151.65826260,1,,0,,,NSW
232240,,Thornton Station,-32.78352147,151.63974686,1,,0,,,NSW
232310,,Metford Station,-32.76520200,151.61823769,1,,0,,,NSW
232320,,Victoria Street Station,-32.75104739,151.59408427,1,,0,,,NSW
232330,,East Maitland Station,-32.74478972,151.58736646,1,,0,,,NSW
233010,,Singleton Station,-32.57195563,151.16543007,1,,0,,,NSW
233310,,Muswellbrook Station,-32.26731150,150.89004029,1,,0,,,NSW
233510,,Branxton Station,-32.66226828,151.34563530,1,,0,,,NSW
233610,,Aberdeen Station,-32.16709420,150.89204155,1,,0,,,NSW
233710,,Scone Station,-32.04641035,150.86693959,1,,0,,,NSW
242010,,Dungog Station,-32.40228864,151.75937291,1,,0,,,NSW
242020,,Wallarobba Station,-32.49616061,151.69571960,1,,0,,,NSW
242030,,Wirragulla Station,-32.46323348,151.74253302,1,,0,,,NSW
242040,,Hilldale Station,-32.50455904,151.64990290,1,,0,,,NSW
242050,,Martins Creek Station,-32.55816744,151.61847273,1,,0,,,NSW
242110,,Paterson Station,-32.60213217,151.61472967,1,,0,,,NSW
G2287174,,"Birmingham Gardens Ambulance Station, Wilkinson Av",-32.89603473,151.68221957,1,,0,,,NSW
G229850,,Bridge St After Station St,-32.90331418,151.72186773,1,,0,,,NSW
G231114,,"East Gresford Police Station, Durham Rd",-32.42852990,151.55112239,1,,0,,,NSW
G2320145,,Bolwarra Heights Shell Service Station,-32.70119785,151.58487448,1,,0,,,NSW
G2321150,,Station Lane At Christopher Rd,-32.70491492,151.45373517,1,,0,,,NSW
G2323291,,"East Maitland Station, Melbourne St",-32.74403324,151.58735959,1,,0,,,NSW
G2324142,,Raymond Terrace Rd At Martins Wharf Rd,-32.76325691,151.70184203,1,,0,,,NSW
G2324147,,Martins Wharf Rd Opp Millers Forest Public School,-32.75204149,151.70424684,1,,0,,,NSW
G242131,,Tocal Rd Near Mindaribba Station,-32.66538880,151.58633219,1,,0,,,NSW
28202,,Wellington Station,-32.55403115,148.94683973,1,,0,,,NSW
28311,,Geurie Station,-32.39799009,148.83043562,1,,0,,,NSW
2871689,,Forbes Historic Railway Station,-33.37913044,148.01193145,1,,0,,,NSW
G2357125,,"Yearinan Station, Baradine Rd",-31.18350529,149.17779847,1,,0,,,NSW
G2820110,,"Wellington Soil Conservation Research Station, Goolma Rd",-32.50762036,148.97459711,1,,0,,,NSW
G2820258,,Old Station Rd Opp 643,-32.29813331,149.07161845,1,,0,,,NSW
G282036,,Old Station Rd Before Forestvale Rd,-32.32113125,149.02608823,1,,0,,,NSW
G282083,,Old Station Rd At Gollan Rd,-32.27564718,149.10067221,1,,0,,,NSW
G28301113,,Peak Hill Rd At Station Yards Rd,-32.32674474,148.51267121,1,,0,,,NSW
G28301142,,"Dubbo Station, Talbragar St",-32.24556105,148.60787654,1,,0,,,NSW
G28301261,,Dubbo Railway Station,-32.24562860,148.60823859,1,,0,,,NSW
G286759,,Mclaughlan St Opp Cumnock Police Station,-32.92952868,148.75121880,1,,0,,,NSW
G286942,,"Shell Service Station, Caswell St",-32.72655083,148.19179440,1,,0,,,NSW
G2870458,,Station St After Alluvial St,-33.14282980,148.16956946,1,,0,,,NSW
G2870560,,Station St At Alluvial St,-33.14259533,148.16956635,1,,0,,,NSW
G2870748,,Clarke St At Station St,-33.14803948,148.16513541,1,,0,,,NSW
G287618,,Jackson St At Station St,-33.10790035,147.79924383,1,,0,,,NSW
G287619,,Station St After Hutton St,-33.10768825,147.80417193,1,,0,,,NSW
G287654,,Station St Before Edols St,-33.10782538,147.80108655,1,,0,,,NSW
G287655,,Station St After Jackson St,-33.10794036,147.80003728,1,,0,,,NSW
G287657,,Station St At Monomie St,-33.10764318,147.80556478,1,,0,,,NSW
G287660,,Station St At Hutton St,-33.10775789,147.80316512,1,,0,,,NSW
G2877180,,"Kiagatha Station, Kiacatoo Rd",-33.06430012,146.89714834,1,,0,,,NSW
G287772,,Kiacatoo Rd Opp Kiagatha Station,-33.06421884,146.89703060,1,,0,,,NSW
G17976,,Mildura Station,-34.18205205,142.16324811,1,,0,,,NSW
G2831125,,Needlewood Station,-32.05036478,146.18173902,1,,0,,,NSW
G283313,,"Collarenebri Police Station, Walgett St",-29.54519406,148.57854036,1,,0,,,NSW
G283521,,Narri Station Kidman Way,-31.69166978,145.90652010,1,,0,,,NSW
234012,,Tamworth Station,-31.08756674,150.93107296,1,,0,,,NSW
23411,,Werris Creek Station,-31.34906879,150.64641949,1,,0,,,NSW
23431,,Quirindi Station,-31.50539998,150.68109985,1,,0,,,NSW
23501,,Armidale Station,-30.51519800,151.65175865,1,,0,,,NSW
G23401127,,"West Tamworth Fire Station, Kent St",-31.10336907,150.91917604,1,,0,,,NSW
G2340485,,"Goonoo Goonoo Station, New England Hwy",-31.28978414,150.90627669,1,,0,,,NSW
G23412,,"Werris Creek Station, Single St",-31.34834883,150.64701138,1,,0,,,NSW
G23421,,"Currabubula Service Station, Werris Creek Rd",-31.26375547,150.73270611,1,,0,,,NSW
G234335,,Station St Opp Abbott St,-31.50237197,150.68107572,1,,0,,,NSW
G234337,,Station St At Nowland St,-31.50093642,150.68115616,1,,0,,,NSW
G234374,,Station St At Dalley St,-31.50471675,150.68041022,1,,0,,,NSW
G236062,,Ashford Rd At Byron Station Lane,-29.71306260,151.13858921,1,,0,,,NSW
G236065,,Byron Station Lane At Ashford Rd,-29.71287199,151.13834390,1,,0,,,NSW
G2365179,,"Guyra Ambulance Station, Abercrombie St",-30.21428502,151.67817192,1,,0,,,NSW
G2370272,,Nutrition Station Rd Opp 101,-29.72422969,151.86792758,1,,0,,,NSW
G237285,,Scott St Opp Tenterfield Police Station,-29.04996866,152.01743595,1,,0,,,NSW
G2380365,,385 Quia Station Rd,-30.90850284,150.02592974,1,,0,,,NSW
G2380371,,Goolhi Rd Opp Quia Station Rd,-30.92139667,150.05623920,1,,0,,,NSW
G2380375,,Goolhi Rd After Quia Station Rd,-30.92113586,150.05620998,1,,0,,,NSW
G2380379,,Quia Station Rd Opp 385,-30.90835235,150.02580996,1,,0,,,NSW
G2380427,,Quia Station Rd At Wightman Rd,-30.90498581,149.99924601,1,,0,,,NSW
G2404115,,Delungra Rd After Sheep Station Creek Rd,-29.79276649,150.62145267,1,,0,,,NSW
G438019,,Bruxner Way At Mingoola Station Rd,-29.00649777,151.54361914,1,,0,,,NSW
24301,,Taree Station,-31.90633103,152.45724515,1,,0,,,NSW
G231143,,Durham Rd Opp East Gresford Police Station,-32.42897147,151.55136768,1,,0,,,NSW
G231236,,Clarkson St Opp Nabiac Police Station,-32.09799599,152.37914860,1,,0,,,NSW
G231257,,Wharf St At Robertson St,-32.10060203,152.39404771,1,,0,,,NSW
G231277,,22 Wharf St,-32.10100703,152.39721328,1,,0,,,NSW
G232957,,Mountain Station Rd At Gummun Rd,-31.99152129,150.34902465,1,,0,,,NSW
G232958,,Mountain Station Rd Opp Mountain Station,-32.00528621,150.34872151,1,,0,,,NSW
G232960,,Mountain Station Rd At Coulsons Creek Rd,-32.09711708,150.36859203,1,,0,,,NSW
G232968,,Coulsons Creek Rd At Mountain Station Rd,-32.09702307,150.36873684,1,,0,,,NSW
G2343255,,Station St Before Abbott St,-31.50346423,150.68070827,1,,0,,,NSW
G242033,,Cory St After Station St,-32.55755797,151.61887757,1,,0,,,NSW
G242041,,Cory St Before Station St,-32.55764046,151.61883926,1,,0,,,NSW
G242092,,"Dungog Ambulance Station, Mary St",-32.40980558,151.75473494,1,,0,,,NSW
G2428137,,Wharf St And Kent St,-32.17585631,152.50084207,1,,0,,,NSW
G2428139,,Wharf St Near Beach St,-32.17374857,152.50127603,1,,0,,,NSW
G2428140,,North St And Wharf St,-32.16928765,152.50199150,1,,0,,,NSW
G2428141,,Wallis St And Wharf St,-32.17152064,152.50198854,1,,0,,,NSW
G2429211,,Mill St After Fire Station Rd,-32.05276799,152.26558184,1,,0,,,NSW
G2429556,,Mill St Before Fire Station Rd,-32.05179801,152.26530410,1,,0,,,NSW
G2429632,,Fire Station Rd Before Mill St,-32.05219518,152.26398408,1,,0,,,NSW
G277515,,Wharf St After Espie St,-33.29073977,150.97216555,1,,0,,,NSW
G277523,,Wharf St At Wollombi Rd,-33.29266625,150.97166282,1,,0,,,NSW
G277524,,Bulga St After Wharf St,-33.29216215,150.97333529,1,,0,,,NSW
G277535,,Wharf St Before Espie St,-33.29069683,150.97209922,1,,0,,,NSW
G277539,,Bulga St Before Wharf St,-33.29222162,150.97316631,1,,0,,,NSW
24391,,Kendall Station,-31.63540366,152.70629422,1,,0,,,NSW
24461,,Wauchope Station,-31.45590568,152.73652300,1,,0,,,NSW
24551,,Urunga Station,-30.49903768,153.01863890,1,,0,,,NSW
24601,,Grafton Station,-29.70390600,152.94169226,1,,0,,,NSW
G2440159,,Old Aerodrome Rd At Nelsons Wharf Rd,-31.08019909,152.77016656,1,,0,,,NSW
G244130,,Wharf Rd Before Pacific Hwy,-31.22572251,152.82463686,1,,0,,,NSW
G244134,,Station St At South Bank Rd,-30.85143251,152.90110619,1,,0,,,NSW
G2444100,,Settlement Point Rd Opp Settlement Point Ferry Wharf,-31.40703884,152.90240271,1,,0,,,NSW
G244826,,"Nambucca Heads Police Station, Bowra St",-30.64202679,153.00230814,1,,0,,,NSW
G2450349,,Archville Station Rd Turnaround,-30.39075092,153.04858992,1,,0,,,NSW
G2450406,,Archville Station Rd Before Pine Creek Way,-30.39090723,153.03164739,1,,0,,,NSW
G2450420,,Bonville Station Rd At Pine Creek Way,-30.37622362,153.03525738,1,,0,,,NSW
G2450421,,Bonville Station Rd Opp Fig Cl,-30.37511719,153.04610819,1,,0,,,NSW
G2450440,,Grandis Rd At Bonville Station Rd,-30.37559056,153.04773584,1,,0,,,NSW
G2450641,,Pine Creek Way Before Bonville Station Rd,-30.37534418,153.03520315,1,,0,,,NSW
G245652,,Beach St Opp Woolgoolga Police Station,-30.11131651,153.19635599,1,,0,,,NSW
G2460119,,Gwydir Hwy At Ramornie Station Rd,-29.62909278,152.75749205,1,,0,,,NSW
G2460341,,"Nymboida Police Station, Armidale Rd",-29.97625711,152.72592218,1,,0,,,NSW
G2460447,,"Old Nymboida Coaching Station, Armidale Rd",-29.95436996,152.72703063,1,,0,,,NSW
G2460465,,Armidale Rd Opp Old Nymboida Coaching Station,-29.95439106,152.72716623,1,,0,,,NSW
G246065,,Through St At Wharf St,-29.70224864,152.93752222,1,,0,,,NSW
G2546283,,"Bermagui Police Station, Young St",-36.42785133,150.07802147,1,,0,,,NSW
G2546345,,Young St Opp Bermagui Police Station,-36.42795878,150.07804802,1,,0,,,NSW
G2550251,,Loftus St Opp Bemboka Police Station,-36.63013004,149.57338023,1,,0,,,NSW
G2550252,,"Bemboka Police Station, Loftus St",-36.63017676,149.57330351,1,,0,,,NSW
G2550539,,"Tathra Rural Fire Station, Bega St",-36.73504024,149.97268587,1,,0,,,NSW
G255099,,Bega St Opp Candelo Police Station,-36.76938322,149.69598466,1,,0,,,NSW
G25513,,"Eden Wharf, Imlay St",-37.07148166,149.91021998,1,,0,,,NSW
G2571280,,Menangle St Opp Picton Train Station,-34.17919067,150.61387292,1,,0,,,NSW
G257167,,"Buxton Station, West Pde",-34.25463404,150.53376782,1,,0,,,NSW
G257234,,"Thirlmere Station, Oaks St",-34.20419566,150.57157574,1,,0,,,NSW
G2575106,,Railway Pde Opp Mittagong Station,-34.45329962,150.44762643,1,,0,,,NSW
G2575118,,Old Hume Hwy Opp Yerrinbool Train Station,-34.37141410,150.54309415,1,,0,,,NSW
G2575287,,Station Rd Opp Olton St,-34.41881883,150.49801771,1,,0,,,NSW
G2575350,,Park Rd After Station Rd,-34.42066877,150.49824710,1,,0,,,NSW
G2575353,,Mittagong Station Opp Ward Lane,-34.45237181,150.44761001,1,,0,,,NSW
G257547,,"St Stephens Anglican Church, Station St",-34.45132780,150.44819806,1,,0,,,NSW
G2576318,,Station St At Bowral St,-34.48266936,150.41400836,1,,0,,,NSW
G2577239,,"Kangaroo Valley Police Station, Moss Vale Rd",-34.73701940,150.53469664,1,,0,,,NSW
G2577351,,Burrawang Station Rd Before Illawarra Hwy,-34.58437613,150.52787505,1,,0,,,NSW
G257822,,"Bundanoon Fire Station, Anzac Pde",-34.65685188,150.29752739,1,,0,,,NSW
G257945,,Zone Substation Bundanoon Rd,-34.63076306,150.32197494,1,,0,,,NSW
G257960,,"Exeter Station, Ringwood Rd",-34.61338809,150.31795703,1,,0,,,NSW
G257961,,"Marulan Weigh Station, Hume Hwy",-34.70404259,150.01488163,1,,0,,,NSW
G257987,,"Wingello Station, Sydney St",-34.69211038,150.15776040,1,,0,,,NSW
G257988,,"Wingello Railway Station, Sydney St",-34.69216299,150.15781696,1,,0,,,NSW
G253467,,"Gerringong Station, Belinda St",-34.74585103,150.81761874,1,,0,,,NSW
G2535169,,Wharf Rd After Old Creamery Lane,-34.78050328,150.69791346,1,,0,,,NSW
G2539142,,"Ulladulla Police Station, Princes Hwy",-35.35243062,150.47516097,1,,0,,,NSW
G2539166,,Princes Hwy Opp Ulladulla Police Station,-35.35231471,150.47543098,1,,0,,,NSW
G25401159,,"Culburra Ambulance Station, Culburra Rd",-34.93121669,150.75561681,1,,0,,,NSW
G2541130,,Meroo St Opp Bomaderry Station,-34.85362932,150.60922032,1,,0,,,NSW
G2567221,,"Narellan Police Station, Camden Valley Way",-34.04197239,150.73139244,1,,0,,,NSW
G256827,,Menangle Rd Before Station St,-34.12529424,150.73878179,1,,0,,,NSW
G256917,,Durham St Before Station St,-34.18475133,150.70857203,1,,0,,,NSW
G256929,,Durham St At Station St,-34.18350004,150.70852804,1,,0,,,NSW
G256937,,Camden Rd At Station St,-34.18374487,150.71085930,1,,0,,,NSW
G2571113,,Railway Pde At Station St,-34.30768135,150.52152535,1,,0,,,NSW
G2571213,,Nattai St Before Station St,-34.22608188,150.55530373,1,,0,,,NSW
G257129,,"Buxton Station, East Pde",-34.25479999,150.53426317,1,,0,,,NSW
G2571367,,Station St After Nattai St,-34.22721840,150.55402786,1,,0,,,NSW
G2572102,,Nattai St At Station St,-34.22600087,150.55530032,1,,0,,,NSW
G2572140,,Station St At Austins Lane,-34.21292935,150.56442699,1,,0,,,NSW
G2572158,,Rita St At Station Master Av,-34.20364658,150.57803893,1,,0,,,NSW
G257219,,Thirlmere Way Opp Station St,-34.20483378,150.57225351,1,,0,,,NSW
G2572202,,Station St Before Bell St,-34.20765410,150.56948727,1,,0,,,NSW
G2572222,,242 Station St,-34.22322223,150.55695187,1,,0,,,NSW
G2572238,,Leonard St After Station St,-34.21146606,150.56670843,1,,0,,,NSW
G2572239,,Leonard St Before Station St,-34.21148596,150.56664419,1,,0,,,NSW
G257449,,Great Southern Rd Opp Bargo Station,-34.29101377,150.58066819,1,,0,,,NSW
G257451,,"Bargo Station, Great Southern Rd",-34.29119728,150.58055655,1,,0,,,NSW
G2264117,,Station St Opp Harbord St,-33.10766668,151.51369856,1,,0,,,NSW
G226412,,Station St After Yambo St,-33.10799073,151.48756409,1,,0,,,NSW
G2264135,,Victoria St At Station St,-33.10315189,151.51770598,1,,0,,,NSW
G226415,,Station St Before Princes St,-33.10453051,151.51670627,1,,0,,,NSW
G2264157,,Station St Opp Marconi Rd,-33.10863906,151.50675833,1,,0,,,NSW
G226434,,Station St At Argyle St,-33.10495586,151.51665314,1,,0,,,NSW
G226453,,Station St After Marconi Rd,-33.10844498,151.50739067,1,,0,,,NSW
G226455,,Station St At Amos St,-33.10712713,151.51491261,1,,0,,,NSW
G228342,,"Old Toronto Station, Victory Pde",-33.01268760,151.59690753,1,,0,,,NSW
G229978,,"Lambton Fire Station, Young Rd",-32.91619069,151.72056643,1,,0,,,NSW
26631,,Junee Station,-34.87028661,147.58396445,1,,0,,,NSW
26801,,Griffith Station,-34.28681930,146.04772880,1,,0,,,NSW
G2650138,,"Harefield Railway Station, Junee Harefield Rd",-34.96272266,147.51871191,1,,0,,,NSW
G2663229,,Junee Railway Station,-34.87052650,147.58471015,1,,0,,,NSW
G266520,,214 Mumbledool Station Rd,-34.32056985,146.68490099,1,,0,,,NSW
G2680539,,Research Station Rd After Wright Rd,-34.31933620,146.06856695,1,,0,,,NSW
G270214,,"Brushwood Station, Canola Way",-34.80434011,147.09964102,1,,0,,,NSW
G270549,,Murrami Station,-34.42720977,146.30464335,1,,0,,,NSW
G272277,,Nangus Rd At Back Station Creek Rd,-35.08380464,148.06150369,1,,0,,,NSW
G2750404,,"Emu Plains Station, Railway Row",-33.74558656,150.67336310,1,,0,,,NSW
G2750405,,Railway Row Opp Emu Plains Station,-33.74569329,150.67341080,1,,0,,,NSW
G277730,,Ferguson Rd Opp Ambulance Station,-33.70129571,150.55977642,1,,0,,,NSW
G277813,,Station St At Ridge St,-33.73324714,150.48396905,1,,0,,,NSW
G2780238,,Station St After Civic Pl,-33.71001314,150.31311563,1,,0,,,NSW
G2780259,,Station St Opp Edwin Lane,-33.70752132,150.31326789,1,,0,,,NSW
G278052,,"Leura Station, Leura Mall",-33.71159732,150.33127423,1,,0,,,NSW
G278066,,Parke St Opp Fire Station,-33.71228040,150.31024759,1,,0,,,NSW
G278247,,Great Western Hwy At Station St,-33.71071285,150.37608420,1,,0,,,NSW
G278518,,Wombat St After Station St,-33.62828743,150.28339841,1,,0,,,NSW
G2508115,,Old Station Rd Opp The Crescent,-34.18183629,150.99395435,1,,0,,,NSW
G2508131,,Station St Opp Watergum Gr,-34.22821945,150.98436524,1,,0,,,NSW
G2508147,,"Stanwell Park Beach Reserve, Station St",-34.22831494,150.98779773,1,,0,,,NSW
G2508149,,Lawrence Hargrave Dr After Station St,-34.22779341,150.98388953,1,,0,,,NSW
G250861,,Old Station Rd At The Crescent,-34.18186857,150.99379325,1,,0,,,NSW
G250862,,Old Station Rd At Foster St,-34.18055153,150.99328657,1,,0,,,NSW
G250878,,Shell Service Station Lilyvale St,-34.19253820,150.97769567,1,,0,,,NSW
G251519,,Thirroul Fire Station Lawrence Hargrave Dr,-34.31458664,150.92524642,1,,0,,,NSW
G251730,,"Bulli Fire Station, Princes Hwy",-34.33875352,150.90892827,1,,0,,,NSW
G250078,,Crown St Opp Station St,-34.42560407,150.88928891,1,,0,,,NSW
G252912,,"Dunmore (Shellharbour) Station, Dunmore Rd",-34.60591109,150.84090116,1,,0,,,NSW
2790128,,Rydal Station,-33.48386625,150.03184368,1,,0,,,NSW
279538,,Bathurst Station,-33.42559763,149.58318060,1,,0,,,NSW
28001,,Orange Station,-33.28696469,149.10373338,1,,0,,,NSW
286684,,Molong Historic Railway Station,-33.09263906,148.87163455,1,,0,,,NSW
G2790115,,"Zig Zag Station, Chifley Rd",-33.47779294,150.22130820,1,,0,,,NSW
G279015,,Main St At Station St,-33.48180277,150.15520355,1,,0,,,NSW
G2790269,,Sodwalls Rd After Sodwalls Station Rd,-33.51565253,149.99442490,1,,0,,,NSW
G279065,,"Historic Bowenfel Station, Cooerwull Rd",-33.47753599,150.13544986,1,,0,,,NSW
G279219,,"Mandurama Police Station, Olive St",-33.65117376,149.07222017,1,,0,,,NSW
G279220,,Olive St Opp Mandurama Police Station,-33.65132373,149.07241784,1,,0,,,NSW
G279357,,"Woodstock Police Station, Parkes St",-33.74664127,148.84770594,1,,0,,,NSW
G2794193,,Station St At Thurburn St,-33.93758577,148.60518443,1,,0,,,NSW
G2794349,,Middle Ck Rd At Sheep Station Rd,-33.77189245,148.51390807,1,,0,,,NSW
G2794352,,Sheep Station Rd Opp Fragar Rd,-33.77441076,148.50413634,1,,0,,,NSW
G2794353,,Sheep Station Rd Opp 577,-33.77864886,148.48556008,1,,0,,,NSW
G2794354,,Sheep Station Rd Opp 340,-33.78897897,148.50306261,1,,0,,,NSW
G2794355,,189 Sheep Station Rd,-33.79328228,148.51692002,1,,0,,,NSW
G2794356,,177 Sheep Station Rd,-33.79412089,148.51765849,1,,0,,,NSW
G2794357,,133 Sheep Station Rd,-33.79654699,148.52129821,1,,0,,,NSW
G2794358,,Sheep Station Rd At Barryrennie Rd,-33.80307345,148.53243204,1,,0,,,NSW
G2794376,,340 Sheep Station Rd,-33.78890579,148.50314774,1,,0,,,NSW
G2794377,,Sheep Station Rd Opp 189,-33.79324515,148.51700577,1,,0,,,NSW
G2794378,,Sheep Station Rd Opp 177,-33.79401243,148.51767818,1,,0,,,NSW
G2794379,,Sheep Station Rd Opp 133,-33.79643853,148.52131789,1,,0,,,NSW
G27951111,,"Bobbys Station Property, The Bridle Track",-33.29957727,149.54830928,1,,0,,,NSW
G27951112,,The Bridle Track Opp Bobbys Station Property,-33.29952166,149.54838282,1,,0,,,NSW
G27951120,,"Stony Creek Station Property, The Bridle Track",-33.22716883,149.51987917,1,,0,,,NSW
G279514,,"Bathurst Station, Havannah St",-33.42493572,149.58249434,1,,0,,,NSW
G2795412,,Research Station Dr After Browning St,-33.42603839,149.56717242,1,,0,,,NSW
G2795413,,Research Station Dr At Wiradjuri Rd,-33.42805823,149.56105981,1,,0,,,NSW
G2795709,,Tarana Rd At Locksley Station Rd,-33.51487727,149.78233545,1,,0,,,NSW
G2795727,,Station St Turnaround,-33.48049305,149.71280975,1,,0,,,NSW
G2795822,,"Yetholme Service Station Motel, Great Western Hwy",-33.44709378,149.82874489,1,,0,,,NSW
G2800519,,The Escort Way At Heifer Station Lane,-33.26391404,149.02068872,1,,0,,,NSW
G280063,,Peisley St Opp Orange Station,-33.28647173,149.10302366,1,,0,,,NSW
G2827136,,Station St After Noreen St,-31.70707958,148.65842541,1,,0,,,NSW
G2827167,,Warren Rd At Station St,-31.71085536,148.65733190,1,,0,,,NSW
G2827168,,Station St After Warren Rd,-31.71057113,148.65768561,1,,0,,,NSW
G284528,,"Wallerawang Station, Main St",-33.40785207,150.06746270,1,,0,,,NSW
G284537,,Delta Electricity Wang Power Station,-33.39937120,150.07938418,1,,0,,,NSW
G284555,,"Wallerawang Police Station, Tweedie St",-33.41164392,150.06395222,1,,0,,,NSW
G284592,,Cripps Av Opp Wallerawang Fire Station,-33.41076797,150.06656565,1,,0,,,NSW
G284613,,"Capertee Police Station, Castlereagh Hwy",-33.14691539,149.98718373,1,,0,,,NSW
G285020,,Horatio St Opp Mudgee Fire Station,-32.59909051,149.58667341,1,,0,,,NSW
G2850573,,"Lue Waste Transfer Station, Lue Rd",-32.64631174,149.83179022,1,,0,,,NSW
G2850578,,"Mudgee Fire Station, Horatio St",-32.59928327,149.58650851,1,,0,,,NSW
2484133,,Murwillumbah Historic Railway Station,-28.32994493,153.40254942,1,,0,,,NSW
248593,,"Tweed Mall, Wharf St",-28.17215747,153.54338321,1,,0,,,NSW
G2469170,,Ewingar Rd Before Plains Station Rd,-29.03415382,152.56408624,1,,0,,,NSW
G2469171,,Plains Station Rd Opp 1179,-28.98488784,152.55322677,1,,0,,,NSW
G2469172,,1092 Plains Station Rd,-28.97702776,152.55192511,1,,0,,,NSW
G2469176,,Plains Station Rd Opp 1092,-28.97703294,152.55201754,1,,0,,,NSW
G2469177,,1179 Plains Station Rd,-28.98491098,152.55332017,1,,0,,,NSW
G2469178,,Ewingar Rd After Plains Station Rd,-29.03422830,152.56424392,1,,0,,,NSW
G246990,,Plains Station Rd After Bruxner Hwy,-28.88996269,152.53670460,1,,0,,,NSW
G247017,,Fairy Hill School Rd At Fairy Hill Station Rd,-28.77014631,152.99489880,1,,0,,,NSW
G2470210,,"Sextonville Rural Fire Station, Sextonville Rd",-28.72363503,152.87537853,1,,0,,,NSW
G247047,,East St At Wharf St,-28.86146735,153.05566004,1,,0,,,NSW
G247053,,Summerland Way At Fairy Hill Station Rd,-28.77002234,152.98494307,1,,0,,,NSW
G2474406,,"17 Ettrick Rd, Horse Station Creek",-28.62325315,152.97135692,1,,0,,,NSW
G247993,,Byron St At Station St,-28.68638508,153.52506497,1,,0,,,NSW
G24801370,,Wyrallah Rd At Munro Wharf Rd,-28.92773077,153.31870505,1,,0,,,NSW
G24801958,,Lismore Rwy Station Union St,-28.80991022,153.26872127,1,,0,,,NSW
G2480772,,Bruxner Hwy At Wharf Rd,-28.87075603,153.25719521,1,,0,,,NSW
G248521,,Wharf St At River Tce,-28.17886314,153.54103214,1,,0,,,NSW
G248539,,"Twin Towns Services Club, Wharf St",-28.16900794,153.54378957,1,,0,,,NSW
G248584,,"Tweed Heads Civic And Cultural Centre, Wharf Rd",-28.17686880,153.54135689,1,,0,,,NSW
G2539284,,Cunjurong Point Rd Opp Manyana Main Station RFB,-35.26310401,150.50809036,1,,0,,,NSW
2300146,,Queens Wharf,-32.92539108,151.78077188,1,,0,,,NSW
G2290302,,Dudley Rd Near Station St,-32.97997595,151.71008223,1,,0,,,NSW
G2291148,,"Fire And Rescue NSW Fire Station, Llewellyn St",-32.94231331,151.75139907,1,,0,,,NSW
G229841,,Turton Rd Before Station St,-32.90247242,151.72887050,1,,0,,,NSW
G2300138,,Nobbys Rd Before Wharf Rd,-32.92492523,151.79103203,1,,0,,,NSW
G230098,,Wharf Rd Opp Argyle St,-32.92558591,151.77592273,1,,0,,,NSW
G230099,,Wharf Rd Before Argyle St,-32.92569050,151.77577883,1,,0,,,NSW
2000168,,Haymarket Light Rail,-33.88139919,151.20524224,1,,0,,,NSW
200946,,Pyrmont Bay Light Rail,-33.86933850,151.19748860,1,,0,,,NSW
200947,,The Star Light Rail,-33.86751672,151.19516351,1,,0,,,NSW
200948,,John Street Square Light Rail,-33.86730371,151.19216125,1,,0,,,NSW
204089,,Lilyfield Light Rail,-33.87417369,151.16497483,1,,0,,,NSW
204092,,Marion Light Rail,-33.88389956,151.14511676,1,,0,,,NSW
21271,,Sydney Olympic Park Wharf,-33.82211477,151.07909314,1,,0,,,NSW
21371,,Cabarita Wharf,-33.84097136,151.11650909,1,,0,,,NSW
220355,,Dulwich Grove Light Rail,-33.90501667,151.13904088,1,,0,,,NSW
G204422,,Princes Hwy After Station St,-33.92609725,151.15942001,1,,0,,,NSW
G204743,,"Drummoyne Fire Station, Lyons Rd",-33.85156242,151.15392930,1,,0,,,NSW
G214014,,Parramatta Rd At Station St,-33.86521952,151.08672957,1,,0,,,NSW
G219316,,"Hurlstone Park Station, Duntroon St",-33.90961599,151.13248791,1,,0,,,NSW
G219456,,"Campsie Fire Station, Claremont St",-33.91423308,151.10385603,1,,0,,,NSW
G220459,,Illawarra Rd Near Wharf St,-33.92161133,151.14337881,1,,0,,,NSW
G220566,,West Botany St Opp Arncliffe Fire Station,-33.93991587,151.15123951,1,,0,,,NSW
G220569,,"Arncliffe Fire Station, West Botany St",-33.94021879,151.15134072,1,,0,,,NSW
G2640641,,"Albury Station, Railway Pl, Stand A",-36.08370214,146.92374958,1,,0,,,NSW
G2640657,,"Albury Station, Smollett St South",-36.08374651,146.92263883,1,,0,,,NSW
G2642181,,Station St Opp Cross St,-35.83327926,146.98890574,1,,0,,,NSW
G2642399,,Station St At Cross St,-35.83341452,146.98916038,1,,0,,,NSW
G2642400,,Station St Before Cross St,-35.83370321,146.99127512,1,,0,,,NSW
G271015,,"Deniliquin Fire Station, George St",-35.52912030,144.96479626,1,,0,,,NSW
G27314,,"Moama Fire Station, Francis St",-36.10981226,144.75794985,1,,0,,,NSW
20030,,Broadmeadows Station,-37.68311252,144.91962279,1,,0,,,NSW
20295,,Benalla Station,-36.54475601,145.98372243,1,,0,,,NSW
20342,,Seymour Station,-37.02440930,145.13862445,1,,0,,,NSW
20356,,Wangaratta Station,-36.35519935,146.31691500,1,,0,,,NSW
22180,,Melbourne (Southern Cross) Station,-37.81827452,144.95219708,1,,0,,,NSW
230430,,Sandgate Station,-32.87237742,151.70287731,1,,0,,,NSW
232010,,High Street Station,-32.74167399,151.56393649,1,,0,,,NSW
232110,,Lochinvar Station,-32.72052192,151.45036644,1,,1,,,NSW
232210,,Hexham Station,-32.82888790,151.68414774,1,,0,,,NSW
232220,,Tarro Station,-32.80905884,151.66952574,1,,0,,,NSW
233410,,Greta Station,-32.68687245,151.38420433,1,,0,,,NSW
23381,,Murrurundi Station,-31.76833822,150.83925384,1,,1,,,NSW
23391,,Willow Tree Station,-31.65010159,150.72606029,1,,1,,,NSW
23521,,Kootingal Station,-31.05871230,151.05616580,1,,1,,,NSW
23541,,Walcha Road Station,-30.94099658,151.40217239,1,,0,,,NSW
235813,,Uralla Station,-30.64401382,151.50497744,1,,1,,,NSW
23801,,Gunnedah Station,-30.97938261,150.24799863,1,,0,,,NSW
23821,,Boggabri Station,-30.70364770,150.04003862,1,,1,,,NSW
23901,,Narrabri Station,-30.32523362,149.79204172,1,,0,,,NSW
23971,,Bellata Station,-29.91832547,149.79047633,1,,1,,,NSW
24001,,Moree Station,-29.47336690,149.84821846,1,,0,,,NSW
24221,,Gloucester Station,-32.00468828,151.96695608,1,,1,,,NSW
24291,,Wingham Station,-31.86802006,152.36717454,1,,1,,,NSW
24401,,Kempsey Station,-31.07698100,152.83287734,1,,0,,,NSW
24411,,Eungai Station,-30.84960510,152.90012805,1,,0,,,NSW
24471,,Macksville Station,-30.70928464,152.91314384,1,,0,,,NSW
24481,,Nambucca Heads Station,-30.62906919,152.97753742,1,,0,,,NSW
24501,,Coffs Harbour Station,-30.30612747,153.13776909,1,,0,,,NSW
24521,,Sawtell Station,-30.35950091,153.09749763,1,,0,,,NSW
24701,,Casino Station,-28.86067501,153.03827640,1,,0,,,NSW
24741,,Kyogle Station,-28.62017367,153.00123979,1,,0,,,NSW
257710,,Moss Vale Station,-34.54797724,150.37174595,1,,0,,,NSW
258011,,Tarago Station,-35.07002294,149.65143398,1,,0,,,NSW
25811,,Gunning Station,-34.77970055,149.26129133,1,,0,,,NSW
25871,,Harden Station,-34.55366153,148.37155731,1,,0,,,NSW
25901,,Cootamundra Station,-34.64118692,148.03044233,1,,0,,,NSW
26041,,Canberra Station,-35.31937003,149.14925144,1,,0,,,NSW
26201,,Queanbeyan Station,-35.34293112,149.22759463,1,,0,,,NSW
26211,,Bungendore Station,-35.25607532,149.44634404,1,,0,,,NSW
26401,,Albury Station,-36.08398214,146.92454903,1,,0,,,NSW
26551,,The Rock Station,-35.27176626,147.11829714,1,,0,,,NSW
26581,,Henty Station,-35.51788881,147.03536886,1,,0,,,NSW
26601,,Culcairn Station,-35.66611115,147.03813007,1,,0,,,NSW
27001,,Narrandera Station,-34.74058540,146.55681200,1,,0,,,NSW
27011,,Coolamon Station,-34.81596351,147.20189041,1,,0,,,NSW
27051,,Leeton Station,-34.55457828,146.39776977,1,,0,,,NSW
279821,,Millthorpe Station,-33.44871362,149.18279906,1,,0,,,NSW
27991,,Blayney Station,-33.52704011,149.25451963,1,,0,,,NSW
281023,,Grenfell Historic Railway Station,-33.89550927,148.15529280,1,,0,,,NSW
28201,,Stuart Town Station,-32.80134361,149.07847292,1,,0,,,NSW
28301,,Dubbo Station,-32.24512266,148.60830397,1,,0,,,NSW
285042,,Mudgee Historic Railway Station,-32.60114961,149.58739307,1,,0,,,NSW
28701,,Parkes Station,-33.14217387,148.17314162,1,,0,,,NSW
28771,,Euabalong West Station,-33.05480024,146.39089808,1,,0,,,NSW
28772,,Condobolin Station,-33.08390347,147.15328838,1,,0,,,NSW
28781,,Darnick Station,-32.85090634,143.62530287,1,,0,,,NSW
28782,,Ivanhoe Station,-32.91435835,144.31174473,1,,1,,,NSW
28791,,Menindee Station,-32.38936341,142.42467421,1,,0,,,NSW
28801,,Broken Hill Station,-31.95928770,141.46676726,1,,1,,,NSW
40001,,Brisbane (Roma Street) Station,-27.46554981,153.01904580,1,,0,,,NSW
G16969,,Robinvale Station,-34.58422713,142.76995665,1,,0,,,NSW
G17569,,Cobram Station,-35.92067080,145.64490804,1,,0,,,NSW
G310035,,Beenleigh Station,-27.71740190,153.20443591,1,,0,,,NSW
G42261,,Robina Station,-28.07121666,153.37796331,1,,0,,,NSW
G50001,,"Adelaide Central Bus Station, Franklin St",-34.92747679,138.59550118,1,,0,,,NSW
G2258,,Barton Bus Station,-35.30583652,149.13309029,1,,0,,,NSW
G253641,,Wharf Rd Before Old Punt Rd,-35.70273041,150.18164532,1,,0,,,NSW
G2536412,,Wharf Rd After Timbara Cres,-35.70374566,150.19094450,1,,0,,,NSW
G2536419,,1-9 Wharf Rd,-35.70265196,150.18188527,1,,0,,,NSW
G2536468,,Wharf Rd Before Timbara Cres,-35.70352814,150.19099107,1,,0,,,NSW
G253662,,Braidwood St At Wharf St,-35.64789520,150.14141994,1,,0,,,NSW
G2537286,,South Head Rd Before Preddeys Wharf Rd,-35.91356518,150.13290081,1,,0,,,NSW
G253756,,"Deua River Fire Station, Araluen Rd",-35.78741697,149.95357537,1,,0,,,NSW
G258727,,"Murrumburrah High School, Station St",-34.55861314,148.36823799,1,,0,,,NSW
G2620259,,Ryrie St Opp Michelago Service Station,-35.70379545,149.15943705,1,,0,,,NSW
G2620260,,"Michelago Service Station, Ryrie St",-35.70374060,149.15947977,1,,0,,,NSW
G262184,,"Bungendore Police Station, Gibraltar St",-35.25465515,149.44346605,1,,0,,,NSW
G2622241,,Station St At Kings Hwy,-35.43294274,149.79613461,1,,0,,,NSW
G2627182,,The Station Resort Carpark,-36.45147635,148.61517150,1,,0,,,NSW
G2630278,,"Numeralla Transfer Station, Numeralla Rd",-36.17775035,149.33522794,1,,0,,,NSW
G2630316,,Numeralla Rd Opp Numeralla Transfer Station,-36.17767058,149.33515887,1,,0,,,NSW
G6007,,Well Station Dr Opp Kings Canyon St,-35.20974068,149.15527630,1,,0,,,NSW
G6009,,Well Station Dr Opp Albatross Cr,-35.20553777,149.16346880,1,,0,,,NSW
2000169,,Chinatown Light Rail,-33.87854999,151.20556672,1,,0,,,NSW
2000177,,Bridge Street Light Rail,-33.86415051,151.20746219,1,,0,,,NSW
2000200,,Capitol Square Light Rail,-33.87977512,151.20557292,1,,0,,,NSW
2000202,,Paddy's Markets Light Rail,-33.87928172,151.20261045,1,,0,,,NSW
2000203,,Exhibition Centre Light Rail,-33.87714146,151.19958880,1,,0,,,NSW
2000204,,Convention Light Rail,-33.87267923,151.19807368,1,,0,,,NSW
200953,,Wentworth Park Light Rail,-33.87441219,151.19402163,1,,0,,,NSW
201029,,Surry Hills Light Rail,-33.88813399,151.21195808,1,,0,,,NSW
202158,,Royal Randwick Light Rail,-33.90515433,151.22873454,1,,0,,,NSW
202195,,Moore Park Light Rail,-33.89363632,151.22175819,1,,0,,,NSW
2031156,,UNSW High Street Light Rail,-33.91636479,151.23547074,1,,0,,,NSW
2031157,,Wansey Road Light Rail,-33.91047387,151.23516799,1,,0,,,NSW
2031167,,Randwick Light Rail,-33.91711225,151.24044655,1,,0,,,NSW
203295,,Kingsford Light Rail,-33.92205655,151.22690151,1,,0,,,NSW
203360,,UNSW Anzac Parade Light Rail,-33.91650596,151.22587044,1,,0,,,NSW
203361,,Kensington Light Rail,-33.90922115,151.22339227,1,,0,,,NSW
203362,,ES Marks Light Rail,-33.90603248,151.22389387,1,,0,,,NSW
203755,,Glebe Light Rail,-33.87720829,151.18732093,1,,0,,,NSW
203756,,Jubilee Park Light Rail,-33.87542987,151.17867882,1,,0,,,NSW
203817,,Rozelle Bay Light Rail,-33.87186612,151.17271525,1,,0,,,NSW
204090,,Leichhardt North Light Rail,-33.87497192,151.15415771,1,,0,,,NSW
204091,,Hawthorne Light Rail,-33.87953059,151.14722768,1,,0,,,NSW
204093,,Taverners Hill Light Rail,-33.88903058,151.14525733,1,,0,,,NSW
204950,,Lewisham West Light Rail,-33.89383232,151.14340478,1,,0,,,NSW
211656,,Yallamundi Light Rail,-33.80996000,151.02927179,1,,0,,,NSW
211753,,Dundas Light Rail,-33.80381148,151.03322502,1,,0,,,NSW
214214,,Rosehill Gardens Light Rail,-33.81811804,151.02448392,1,,0,,,NSW
2145553,,Childrens Hospital Light Rail,-33.80258932,150.99302641,1,,0,,,NSW
2145584,,Westmead Hospital Light Rail,-33.80471256,150.99007051,1,,0,,,NSW
2150115,,Tramway Avenue Light Rail,-33.81720469,151.01851443,1,,0,,,NSW
2150128,,Robin Thomas Light Rail,-33.81692044,151.01120346,1,,0,,,NSW
2150132,,Parramatta Square Light Rail,-33.81555003,151.00513726,1,,0,,,NSW
2150135,,Church Street Light Rail,-33.81295045,151.00361257,1,,0,,,NSW
2150163,,Fennell Street Light Rail,-33.80517415,151.00582954,1,,0,,,NSW
2151155,,Benaud Oval Light Rail,-33.80080926,151.00455729,1,,0,,,NSW
2151158,,Ngara Light Rail,-33.80146212,151.00138210,1,,0,,,NSW
220320,,Waratah Mills Light Rail,-33.89884682,151.14004964,1,,0,,,NSW
220322,,Arlington Light Rail,-33.90191238,151.13811260,1,,0,,,NSW
2300130,,Honeysuckle Light Rail,-32.92646158,151.76574844,1,,0,,,NSW
2300133,,Civic Light Rail,-32.92701374,151.77180208,1,,0,,,NSW
2300134,,Crown Street Light Rail,-32.92639537,151.77736549,1,,0,,,NSW
2300135,,Queens Wharf Light Rail,-32.92638967,151.78174425,1,,0,,,NSW
2300136,,Newcastle Beach Light Rail,-32.92750170,151.78633284,1,,0,,,NSW
G2440286,,Old Station Rd At South West Rocks Rd,-31.03820964,152.93075002,1,,0,,,NSW
G2440376,,682 Old Station Rd,-31.07045310,152.92071174,1,,0,,,NSW
G2440377,,Old Station Rd At Local Rd,-31.08176399,152.89865922,1,,0,,,NSW
G2440378,,Old Station Rd At Harold Cct,-31.08135108,152.89392761,1,,0,,,NSW
G2440379,,Old Station Rd At Gorman Lane,-31.07992775,152.88216864,1,,0,,,NSW
G2440380,,Old Station Rd At Inches Rd,-31.07892505,152.87536147,1,,0,,,NSW
G2440383,,Old Station Rd At Sunset Cl,-31.07797960,152.86985468,1,,0,,,NSW
G2440400,,South West Rock Rd Before Old Station Rd,-31.07407605,152.85835150,1,,0,,,NSW
G2440401,,Old Station Rd At Rustic Lane,-31.07715800,152.86478437,1,,0,,,NSW
G244177,,Eungai Station Shop,-30.85104984,152.90120787,1,,0,,,NSW
2000260,,Pyrmont Bay Wharf,-33.86848224,151.19881833,1,,1,,,NSW
2000441,,Barangaroo Wharf,-33.86478387,151.20105626,1,,1,,,NSW
20009,,Cockatoo Island Wharf,-33.84558363,151.17298982,1,,1,,,NSW
200956,,Pirrama Park Wharf,-33.86452999,151.19106420,1,,0,,,NSW
202727,,Darling Point Wharf,-33.86665159,151.23958718,1,,0,,,NSW
202823,,Double Bay Wharf,-33.87370685,151.24244254,1,,0,,,NSW
203783,,Blackwattle Bay Wharf,-33.87133803,151.18507871,1,,0,,,NSW
204155,,Balmain West Wharf,-33.85512418,151.16876765,1,,0,,,NSW
204157,,Balmain Wharf,-33.85475151,151.18611478,1,,1,,,NSW
2046158,,Abbotsford Wharf,-33.84387564,151.12825667,1,,1,,,NSW
2046159,,Chiswick Wharf,-33.84568295,151.14177691,1,,1,,,NSW
204761,,Drummoyne Wharf,-33.84562168,151.15695634,1,,1,,,NSW
206099,,North Sydney Wharf,-33.84459641,151.21859533,1,,1,,,NSW
20611,,Milsons Point Wharf,-33.84960981,151.21085134,1,,1,,,NSW
206132,,Kirribilli Wharf,-33.84935826,151.22029838,1,,0,,,NSW
208878,,South Mosman Wharf,-33.84309934,151.23280681,1,,1,,,NSW
208946,,Kurraba Point Wharf,-33.84331411,151.22209541,1,,0,,,NSW
209037,,Cremorne Point Wharf,-33.84769028,151.23108995,1,,1,,,NSW
209038,,Old Cremorne Wharf,-33.84093939,151.23037870,1,,0,,,NSW
211131,,Huntleys Point Wharf,-33.84187878,151.14210055,1,,1,,,NSW
211217,,Kissing Point Wharf,-33.83165238,151.10200424,1,,1,,,NSW
211655,,Rydalmere Wharf,-33.81778033,151.04386733,1,,1,,,NSW
2150112,,Parramatta Wharf,-33.81395239,151.01048177,1,,1,,,NSW
